[
  {
    "name": "Terwilliger Place",
    "address": "3445 Washington Blvd, Arlington, VA 22201",
    "area": "Clarendon",
    "county": "Arlington",
    "region": "NoVA",
    "lat": 38.886544,
    "lng": -77.102229,
    "est_units": 150,
    "type": "mid-rise",
    "community_room": "Unknown",
    "notes": "Income-restricted",
    "status": "Not Contacted",
    "source": "https://www.apartments.com/terwilliger-place-arlington-va/60ygc6s/",
    "verified": true
  },
  {
    "name": "Cortland Bennett Park",
    "address": "1601 Clarendon Blvd, Arlington, VA 22209",
    "area": "Courthouse",
    "county": "Arlington",
    "region": "NoVA",
    "lat": 38.893637,
    "lng": -77.077015,
    "est_units": 250,
    "type": "high-rise",
    "community_room": "Unknown",
    "notes": "Studio/1/2+ bed",
    "status": "Not Contacted",
    "source": "https://www.apartments.com/cortland-bennett-park-arlington-va/rskqsv3/",
    "verified": true
  },
  {
    "name": "Nalbert Apartments",
    "address": "1317 Fort Myer Dr, Arlington, VA 22209",
    "area": "Courthouse",
    "county": "Arlington",
    "region": "NoVA",
    "lat": 38.8913,
    "lng": -77.0727,
    "est_units": 50,
    "type": "mid-rise",
    "community_room": "Unknown",
    "notes": "Near Courthouse Metro",
    "status": "Not Contacted",
    "source": "https://www.apartments.com/nalbert-apartments-arlington-va/8mb4n72/",
    "verified": true
  },
  {
    "name": "Parc Rosslyn Apartments",
    "address": "1531 N Pierce St, Arlington, VA 22209",
    "area": "Rosslyn",
    "county": "Arlington",
    "region": "NoVA",
    "lat": 38.891863,
    "lng": -77.07596,
    "est_units": 200,
    "type": "high-rise",
    "community_room": "Unknown",
    "notes": "Studio/1/2+ bed",
    "status": "Not Contacted",
    "source": "https://www.apartments.com/parc-rosslyn-apartments-arlington-va/fbe5kvs/",
    "verified": true
  },
  {
    "name": "Ten at Clarendon",
    "address": "3110 10th St N, Arlington, VA 22201",
    "area": "Clarendon",
    "county": "Arlington",
    "region": "NoVA",
    "lat": 38.884203,
    "lng": -77.09535,
    "est_units": 150,
    "type": "mid-rise",
    "community_room": "Unknown",
    "notes": "1/2/3+ bed",
    "status": "Not Contacted",
    "source": "https://www.apartments.com/ten-at-clarendon-arlington-va/m79gctk/",
    "verified": true
  },
  {
    "name": "Sheffield Court",
    "address": "701 N Wayne St, Arlington, VA 22201",
    "area": "Courthouse",
    "county": "Arlington",
    "region": "NoVA",
    "lat": 38.881761,
    "lng": -77.085565,
    "est_units": 100,
    "type": "mid-rise",
    "community_room": "Unknown",
    "notes": "Studio/1/2 bed",
    "status": "Not Contacted",
    "source": "https://www.apartments.com/sheffield-court-arlington-va/0x60xt1/",
    "verified": true
  },
  {
    "name": "Cortland on Adams",
    "address": "2000 N Adams St, Arlington, VA 22201",
    "area": "Courthouse",
    "county": "Arlington",
    "region": "NoVA",
    "lat": 38.896285,
    "lng": -77.089761,
    "est_units": 200,
    "type": "mid-rise",
    "community_room": "Unknown",
    "notes": "Pool, fitness",
    "status": "Not Contacted",
    "source": "https://www.apartments.com/cortland-on-adams-arlington-va/gfl2g6x/",
    "verified": true
  },
  {
    "name": "1500 Arlington Apartments",
    "address": "1500 Arlington Blvd, Arlington, VA 22209",
    "area": "Rosslyn",
    "county": "Arlington",
    "region": "NoVA",
    "lat": 38.89083,
    "lng": -77.074239,
    "est_units": 100,
    "type": "mid-rise",
    "community_room": "Unknown",
    "notes": "Studio/1 bed",
    "status": "Not Contacted",
    "source": "https://www.apartments.com/1500-arlington-apartments-arlington-va/hnbe503/",
    "verified": true
  },
  {
    "name": "Clarendon Court Apartments",
    "address": "1307 N Irving St, Arlington, VA 22201",
    "area": "Clarendon",
    "county": "Arlington",
    "region": "NoVA",
    "lat": 38.887648,
    "lng": -77.098316,
    "est_units": 50,
    "type": "garden",
    "community_room": "Unknown",
    "notes": "1 bed",
    "status": "Not Contacted",
    "source": "https://www.apartments.com/clarendon-court-apartments-arlington-va/8qnger3/",
    "verified": true
  },
  {
    "name": "Barton House",
    "address": "2525 10th St N, Arlington, VA 22201",
    "area": "Courthouse",
    "county": "Arlington",
    "region": "NoVA",
    "lat": 38.885124,
    "lng": -77.088653,
    "est_units": 200,
    "type": "high-rise",
    "community_room": "Unknown",
    "notes": "Studio/1/2 bed",
    "status": "Not Contacted",
    "source": "https://www.apartments.com/barton-house-arlington-va/71r275x/",
    "verified": true
  },
  {
    "name": "The Clarendon",
    "address": "1200 N Herndon St, Arlington, VA 22201",
    "area": "Clarendon",
    "county": "Arlington",
    "region": "NoVA",
    "lat": 38.887681,
    "lng": -77.097046,
    "est_units": 300,
    "type": "high-rise",
    "community_room": "Unknown",
    "notes": "517-1713 sqft",
    "status": "Not Contacted",
    "source": "https://www.apartments.com/the-clarendon-arlington-va/dcv7mkj/",
    "verified": true
  },
  {
    "name": "16th Street Apartments",
    "address": "2420 16th St N, Arlington, VA 22201",
    "area": "Courthouse",
    "county": "Arlington",
    "region": "NoVA",
    "lat": 38.891145,
    "lng": -77.088377,
    "est_units": 30,
    "type": "garden",
    "community_room": "Unknown",
    "notes": "1 bed",
    "status": "Not Contacted",
    "source": "https://www.apartments.com/16th-street-apartments-arlington-va/9m8g634/",
    "verified": true
  },
  {
    "name": "Meridian at Courthouse Commons",
    "address": "1401 N Taft St, Arlington, VA 22201",
    "area": "Courthouse",
    "county": "Arlington",
    "region": "NoVA",
    "lat": 38.889578,
    "lng": -77.081435,
    "est_units": 250,
    "type": "high-rise",
    "community_room": "Unknown",
    "notes": "Studio/1/2 bed",
    "status": "Not Contacted",
    "source": "https://www.apartments.com/meridian-at-courthouse-commons-arlington-va/hph65v1/",
    "verified": true
  },
  {
    "name": "Sedona|Slate",
    "address": "1510 Clarendon Blvd, Arlington, VA 22209",
    "area": "Courthouse",
    "county": "Arlington",
    "region": "NoVA",
    "lat": 38.893619,
    "lng": -77.074318,
    "est_units": 300,
    "type": "high-rise",
    "community_room": "Unknown",
    "notes": "Pool, fitness",
    "status": "Not Contacted",
    "source": "https://www.apartments.com/sedonaslate-arlington-va/y4svpvs/",
    "verified": true
  },
  {
    "name": "Tellus",
    "address": "2009 14th St N, Arlington, VA 22201",
    "area": "Courthouse",
    "county": "Arlington",
    "region": "NoVA",
    "lat": 38.889929,
    "lng": -77.082276,
    "est_units": 250,
    "type": "high-rise",
    "community_room": "Unknown",
    "notes": "Pool, fitness",
    "status": "Not Contacted",
    "source": "https://www.apartments.com/tellus-arlington-va/4n6df1h/",
    "verified": true
  },
  {
    "name": "Arlington Courthouse Apartments",
    "address": "1501 N Rhodes St, Arlington, VA 22209",
    "area": "Courthouse",
    "county": "Arlington",
    "region": "NoVA",
    "lat": 38.891074,
    "lng": -77.07887,
    "est_units": 80,
    "type": "garden",
    "community_room": "Unknown",
    "notes": "1/2 bed",
    "status": "Not Contacted",
    "source": "https://www.apartments.com/arlington-courthouse-apartments-arlington-va/brrchl8/",
    "verified": true
  },
  {
    "name": "Courthouse Plaza",
    "address": "2250 Clarendon Blvd, Arlington, VA 22201",
    "area": "Courthouse",
    "county": "Arlington",
    "region": "NoVA",
    "lat": 38.889708,
    "lng": -77.085641,
    "est_units": 250,
    "type": "high-rise",
    "community_room": "Unknown",
    "notes": "564-1240 sqft",
    "status": "Not Contacted",
    "source": "https://www.apartments.com/courthouse-plaza-arlington-va/15nmfd7/",
    "verified": true
  },
  {
    "name": "Bell at Courthouse",
    "address": "2200 12th Ct N, Arlington, VA 22201",
    "area": "Courthouse",
    "county": "Arlington",
    "region": "NoVA",
    "lat": 38.886667,
    "lng": -77.084065,
    "est_units": 300,
    "type": "high-rise",
    "community_room": "Unknown",
    "notes": "615-2832 sqft",
    "status": "Not Contacted",
    "source": "https://www.apartments.com/bell-at-courthouse-arlington-va/413scyh/",
    "verified": true
  },
  {
    "name": "Avalon Clarendon",
    "address": "2800 Clarendon Blvd, Arlington, VA 22201",
    "area": "Clarendon",
    "county": "Arlington",
    "region": "NoVA",
    "lat": 38.887456,
    "lng": -77.092034,
    "est_units": 250,
    "type": "high-rise",
    "community_room": "Unknown",
    "notes": "612-1345 sqft",
    "status": "Not Contacted",
    "source": "https://www.apartments.com/avalon-clarendon-arlington-va/1x0fnq6/",
    "verified": true
  },
  {
    "name": "The Reserve at Clarendon Centre",
    "address": "3000 N Washington Blvd, Arlington, VA 22201",
    "area": "Clarendon",
    "county": "Arlington",
    "region": "NoVA",
    "lat": 38.886044,
    "lng": -77.096757,
    "est_units": 200,
    "type": "high-rise",
    "community_room": "Unknown",
    "notes": "Equity Residential",
    "status": "Not Contacted",
    "source": "https://www.equityapartments.com/arlington/clarendon/the-reserve-at-clarendon-centre-apartments",
    "verified": true
  },
  {
    "name": "Wholey Legacy Homes",
    "address": "1300 N Pierce St, Arlington, VA 22209",
    "area": "Rosslyn",
    "county": "Arlington",
    "region": "NoVA",
    "lat": 38.888821,
    "lng": -77.076613,
    "est_units": 50,
    "type": "garden",
    "community_room": "Unknown",
    "notes": "1/2/3 bed",
    "status": "Not Contacted",
    "source": "https://www.apartments.com/wholey-legacy-homes-arlington-va/h5zvkl0/",
    "verified": true
  },
  {
    "name": "Whispering Oaks",
    "address": "1310 N Oak St, Arlington, VA 22209",
    "area": "Rosslyn",
    "county": "Arlington",
    "region": "NoVA",
    "lat": 38.889558,
    "lng": -77.073702,
    "est_units": 50,
    "type": "garden",
    "community_room": "Unknown",
    "notes": "1 bed",
    "status": "Not Contacted",
    "source": "https://www.apartments.com/whispering-oaks-arlington-va/sfshwg7/",
    "verified": true
  },
  {
    "name": "The Crestmont",
    "address": "1817 N Quinn St, Arlington, VA 22209",
    "area": "Rosslyn",
    "county": "Arlington",
    "region": "NoVA",
    "lat": 38.896564,
    "lng": -77.077879,
    "est_units": 100,
    "type": "mid-rise",
    "community_room": "Unknown",
    "notes": "2 bed",
    "status": "Not Contacted",
    "source": "https://www.apartments.com/the-crestmont-arlington-va/lwbgqee/",
    "verified": true
  },
  {
    "name": "Park Georgetown",
    "address": "2100 N Pierce St, Arlington, VA 22209",
    "area": "Rosslyn",
    "county": "Arlington",
    "region": "NoVA",
    "lat": 38.899289,
    "lng": -77.077513,
    "est_units": 100,
    "type": "mid-rise",
    "community_room": "Unknown",
    "notes": "Near Rosslyn",
    "status": "Not Contacted",
    "source": "https://www.apartments.com/park-georgetown-arlington-va/",
    "verified": true
  },
  {
    "name": "Virginia Square Plaza",
    "address": "801 N Monroe St, Arlington, VA 22201",
    "area": "Virginia Square",
    "county": "Arlington",
    "region": "NoVA",
    "lat": 38.882128,
    "lng": -77.102577,
    "est_units": 150,
    "type": "mid-rise",
    "community_room": "Unknown",
    "notes": "510-1385 sqft",
    "status": "Not Contacted",
    "source": "https://www.apartments.com/virginia-square-plaza-arlington-va/rgngfh0/",
    "verified": true
  },
  {
    "name": "Virginia Square Towers",
    "address": "3444 Fairfax Dr, Arlington, VA 22201",
    "area": "Virginia Square",
    "county": "Arlington",
    "region": "NoVA",
    "lat": 38.883483,
    "lng": -77.102068,
    "est_units": 300,
    "type": "high-rise",
    "community_room": "Unknown",
    "notes": "401-1445 sqft, pool",
    "status": "Not Contacted",
    "source": "https://www.apartments.com/virginia-square-towers-arlington-va/8jc58y0/",
    "verified": true
  },
  {
    "name": "Virginia Square",
    "address": "901 N Nelson St, Arlington, VA 22203",
    "area": "Virginia Square",
    "county": "Arlington",
    "region": "NoVA",
    "lat": 38.882388,
    "lng": -77.103673,
    "est_units": 150,
    "type": "mid-rise",
    "community_room": "Unknown",
    "notes": "669-1237 sqft",
    "status": "Not Contacted",
    "source": "https://www.apartments.com/virginia-square-arlington-va/46bhq0l/",
    "verified": true
  },
  {
    "name": "The Monroe at Virginia Square",
    "address": "3625 10th St N, Arlington, VA 22201",
    "area": "Virginia Square",
    "county": "Arlington",
    "region": "NoVA",
    "lat": 38.884173,
    "lng": -77.104186,
    "est_units": 150,
    "type": "mid-rise",
    "community_room": "Unknown",
    "notes": "Near Virginia Square Metro",
    "status": "Not Contacted",
    "source": "https://www.apartments.com/the-monroe-at-virginia-square-arlington-va/ecp3erp/",
    "verified": true
  },
  {
    "name": "Latitude",
    "address": "3601 Fairfax Dr, Arlington, VA 22201",
    "area": "Virginia Square",
    "county": "Arlington",
    "region": "NoVA",
    "lat": 38.883446,
    "lng": -77.103536,
    "est_units": 200,
    "type": "high-rise",
    "community_room": "Unknown",
    "notes": "Floor-to-ceiling windows",
    "status": "Not Contacted",
    "source": "https://www.apartments.com/latitude-arlington-va/zfgkvqz/",
    "verified": true
  },
  {
    "name": "The Bartlett",
    "address": "900 N Randolph St, Arlington, VA 22203",
    "area": "Ballston",
    "county": "Arlington",
    "region": "NoVA",
    "lat": 38.881323,
    "lng": -77.109853,
    "est_units": 400,
    "type": "high-rise",
    "community_room": "Unknown",
    "notes": "Ballston Quarter",
    "status": "Not Contacted",
    "source": "https://www.apartments.com/the-bartlett-arlington-va/",
    "verified": true
  },
  {
    "name": "Avalon Ballston Square",
    "address": "820 N Quincy St, Arlington, VA 22203",
    "area": "Ballston",
    "county": "Arlington",
    "region": "NoVA",
    "lat": 38.880217,
    "lng": -77.107718,
    "est_units": 350,
    "type": "high-rise",
    "community_room": "Unknown",
    "notes": "Near Ballston Metro",
    "status": "Not Contacted",
    "source": "https://www.apartments.com/avalon-ballston-square-arlington-va/",
    "verified": true
  },
  {
    "name": "The Waycroft",
    "address": "711 N Glebe Rd, Arlington, VA 22203",
    "area": "Ballston",
    "county": "Arlington",
    "region": "NoVA",
    "lat": 38.879201,
    "lng": -77.112892,
    "est_units": 300,
    "type": "high-rise",
    "community_room": "Unknown",
    "notes": "Luxury high-rise",
    "status": "Not Contacted",
    "source": "https://www.apartments.com/the-waycroft-arlington-va/",
    "verified": true
  },
  {
    "name": "Cortland Ballston",
    "address": "4000 Fairfax Dr, Arlington, VA 22203",
    "area": "Ballston",
    "county": "Arlington",
    "region": "NoVA",
    "lat": 38.882159,
    "lng": -77.108199,
    "est_units": 300,
    "type": "high-rise",
    "community_room": "Unknown",
    "notes": "New listing",
    "status": "Not Contacted",
    "source": "https://www.apartments.com/cortland-ballston-arlington-va/w5z477h/",
    "verified": true
  },
  {
    "name": "Turnberry Tower",
    "address": "1881 N Nash St, Arlington, VA 22209",
    "area": "Rosslyn",
    "county": "Arlington",
    "region": "NoVA",
    "lat": 38.896944,
    "lng": -77.072951,
    "est_units": 250,
    "type": "high-rise",
    "community_room": "Unknown",
    "notes": "Luxury high-rise",
    "status": "Not Contacted",
    "source": "https://www.apartments.com/turnberry-tower-arlington-va/",
    "verified": true
  },
  {
    "name": "The Waterview",
    "address": "1919 N Lynn St, Arlington, VA 22209",
    "area": "Rosslyn",
    "county": "Arlington",
    "region": "NoVA",
    "lat": 38.897534,
    "lng": -77.069976,
    "est_units": 200,
    "type": "high-rise",
    "community_room": "Unknown",
    "notes": "River views",
    "status": "Not Contacted",
    "source": "https://www.apartments.com/the-waterview-arlington-va/",
    "verified": true
  },
  {
    "name": "Rosslyn Vue",
    "address": "1831 N Nash St, Arlington, VA 22209",
    "area": "Rosslyn",
    "county": "Arlington",
    "region": "NoVA",
    "lat": 38.896554,
    "lng": -77.073274,
    "est_units": 200,
    "type": "high-rise",
    "community_room": "Unknown",
    "notes": "Modern high-rise",
    "status": "Not Contacted",
    "source": "https://www.apartments.com/rosslyn-vue-arlington-va/",
    "verified": true
  },
  {
    "name": "Continental",
    "address": "1555 Wilson Blvd, Arlington, VA 22209",
    "area": "Rosslyn",
    "county": "Arlington",
    "region": "NoVA",
    "lat": 38.894663,
    "lng": -77.075444,
    "est_units": 350,
    "type": "high-rise",
    "community_room": "Unknown",
    "notes": "Large community",
    "status": "Not Contacted",
    "source": "https://www.apartments.com/continental-arlington-va/",
    "verified": true
  },
  {
    "name": "River Place",
    "address": "1121 Arlington Blvd, Arlington, VA 22209",
    "area": "Rosslyn",
    "county": "Arlington",
    "region": "NoVA",
    "lat": 38.893613,
    "lng": -77.069943,
    "est_units": 600,
    "type": "high-rise",
    "community_room": "Unknown",
    "notes": "Multi-tower complex",
    "status": "Not Contacted",
    "source": "https://www.apartments.com/river-place-arlington-va/",
    "verified": true
  },
  {
    "name": "Byron on Broad",
    "address": "511 W Broad St, Falls Church, VA 22046",
    "area": "Falls Church City",
    "county": "Falls Church City",
    "region": "NoVA",
    "lat": 38.886483,
    "lng": -77.178026,
    "est_units": 200,
    "type": "mid-rise",
    "community_room": "Unknown",
    "notes": "Mixed-use",
    "status": "Not Contacted",
    "source": "https://www.apartments.com/byron-on-broad-falls-church-va/",
    "verified": true
  },
  {
    "name": "Northgate Apartments",
    "address": "400 N Virginia Ave, Falls Church, VA 22046",
    "area": "Falls Church City",
    "county": "Falls Church City",
    "region": "NoVA",
    "lat": 38.887627,
    "lng": -77.173837,
    "est_units": 100,
    "type": "garden",
    "community_room": "Unknown",
    "notes": "Garden-style",
    "status": "Not Contacted",
    "source": "https://www.apartments.com/northgate-apartments-falls-church-va/",
    "verified": true
  },
  {
    "name": "The Spectrum",
    "address": "444 W Broad St, Falls Church, VA 22046",
    "area": "Falls Church City",
    "county": "Falls Church City",
    "region": "NoVA",
    "lat": 38.886277,
    "lng": -77.17695,
    "est_units": 200,
    "type": "mid-rise",
    "community_room": "Unknown",
    "notes": "Near downtown FC",
    "status": "Not Contacted",
    "source": "https://www.apartments.com/the-spectrum-falls-church-va/",
    "verified": true
  },
  {
    "name": "Winter Hill Senior Apartments",
    "address": "172 W Annandale Rd, Falls Church, VA 22046",
    "area": "Falls Church City",
    "county": "Falls Church City",
    "region": "NoVA",
    "lat": 38.883397,
    "lng": -77.175436,
    "est_units": 80,
    "type": "mid-rise",
    "community_room": "Unknown",
    "notes": "Senior living",
    "status": "Not Contacted",
    "source": "https://www.apartments.com/winter-hill-senior-apartments-falls-church-va/shb2ky7/",
    "verified": true
  },
  {
    "name": "The Glen",
    "address": "2809 W Glen Dr, Falls Church, VA 22046",
    "area": "Falls Church City",
    "county": "Falls Church City",
    "region": "NoVA",
    "lat": 38.877496,
    "lng": -77.198408,
    "est_units": 100,
    "type": "garden",
    "community_room": "Unknown",
    "notes": "Garden community",
    "status": "Not Contacted",
    "source": "https://www.apartments.com/the-glen-falls-church-va/ppkqyrr/",
    "verified": true
  },
  {
    "name": "Merrill House Apartments",
    "address": "210 E Fairfax St, Falls Church, VA 22046",
    "area": "Falls Church City",
    "county": "Falls Church City",
    "region": "NoVA",
    "lat": 38.880752,
    "lng": -77.172314,
    "est_units": 60,
    "type": "mid-rise",
    "community_room": "Unknown",
    "notes": "Downtown FC",
    "status": "Not Contacted",
    "source": "https://www.apartments.com/merrill-house-apartments-falls-church-va/j76ch66/",
    "verified": true
  },
  {
    "name": "Broad & Washington",
    "address": "111 E Broad St, Falls Church, VA 22046",
    "area": "Falls Church City",
    "county": "Falls Church City",
    "region": "NoVA",
    "lat": 38.881912,
    "lng": -77.170107,
    "est_units": 100,
    "type": "mid-rise",
    "community_room": "Unknown",
    "notes": "Downtown FC",
    "status": "Not Contacted",
    "source": "https://www.apartments.com/broad-washington-falls-church-va/1tf0de7/",
    "verified": true
  },
  {
    "name": "Read Building",
    "address": "402 W Broad St, Falls Church, VA 22046",
    "area": "Falls Church City",
    "county": "Falls Church City",
    "region": "NoVA",
    "lat": 38.885927,
    "lng": -77.176219,
    "est_units": 50,
    "type": "mid-rise",
    "community_room": "Unknown",
    "notes": "Downtown FC",
    "status": "Not Contacted",
    "source": "https://www.apartments.com/read-building-falls-church-va/s4fnqe6/",
    "verified": true
  },
  {
    "name": "Modera Founders Row",
    "address": "110 Founders Ave, Falls Church, VA 22046",
    "area": "Falls Church City",
    "county": "Falls Church City",
    "region": "NoVA",
    "lat": 38.890648,
    "lng": -77.182842,
    "est_units": 200,
    "type": "mid-rise",
    "community_room": "Unknown",
    "notes": "New development",
    "status": "Not Contacted",
    "source": "https://www.apartments.com/modera-founders-row-falls-church-va/m8rvlkj/",
    "verified": true
  },
  {
    "name": "Cortland at Falls Church",
    "address": "500 N Roosevelt Blvd, Falls Church, VA 22044",
    "area": "Falls Church",
    "county": "Fairfax",
    "region": "NoVA",
    "lat": 38.875447,
    "lng": -77.152802,
    "est_units": 200,
    "type": "mid-rise",
    "community_room": "Unknown",
    "notes": "Near FC City",
    "status": "Not Contacted",
    "source": "https://www.apartments.com/cortland-at-falls-church-falls-church-va/bfkfw3b/",
    "verified": true
  },
  {
    "name": "Falls Green",
    "address": "501 Roosevelt Blvd, Falls Church, VA 22044",
    "area": "Falls Church",
    "county": "Fairfax",
    "region": "NoVA",
    "lat": 38.876876,
    "lng": -77.154219,
    "est_units": 150,
    "type": "garden",
    "community_room": "Unknown",
    "notes": "Garden community",
    "status": "Not Contacted",
    "source": "https://www.apartments.com/falls-green-falls-church-va/87bv9x3/",
    "verified": true
  },
  {
    "name": "The Jefferson",
    "address": "6166 Leesburg Pike, Falls Church, VA 22044",
    "area": "Seven Corners",
    "county": "Fairfax",
    "region": "NoVA",
    "lat": 38.852,
    "lng": -77.1456,
    "est_units": 200,
    "type": "garden",
    "community_room": "Unknown",
    "notes": "Eagle Rock Community",
    "status": "Not Contacted",
    "source": "https://www.apartments.com/the-jefferson-an-eagle-rock-community-falls-church-va/g06clwy/",
    "verified": true
  },
  {
    "name": "Cavalier Club",
    "address": "6200 Wilson Blvd, Falls Church, VA 22044",
    "area": "Seven Corners",
    "county": "Fairfax",
    "region": "NoVA",
    "lat": 38.874352,
    "lng": -77.148569,
    "est_units": 150,
    "type": "mid-rise",
    "community_room": "Unknown",
    "notes": "Near Seven Corners",
    "status": "Not Contacted",
    "source": "https://www.apartments.com/cavalier-club-falls-church-va/1rwyx84/",
    "verified": true
  },
  {
    "name": "Munson Hill",
    "address": "6129 Leesburg Pike, Falls Church, VA 22041",
    "area": "Seven Corners",
    "county": "Fairfax",
    "region": "NoVA",
    "lat": 38.8524,
    "lng": -77.1441,
    "est_units": 150,
    "type": "garden",
    "community_room": "Unknown",
    "notes": "Near Seven Corners",
    "status": "Not Contacted",
    "source": "https://www.apartments.com/munson-hill-falls-church-va/gvztmdx/",
    "verified": true
  },
  {
    "name": "LOREN",
    "address": "6410 Arlington Blvd, Falls Church, VA 22042",
    "area": "Seven Corners",
    "county": "Fairfax",
    "region": "NoVA",
    "lat": 38.872867,
    "lng": -77.161296,
    "est_units": 200,
    "type": "mid-rise",
    "community_room": "Unknown",
    "notes": "Near Seven Corners",
    "status": "Not Contacted",
    "source": "https://www.apartments.com/loren-falls-church-va/dprpfzj/",
    "verified": true
  },
  {
    "name": "The Willows Apartment Homes",
    "address": "4613 Pinecrest Dr, Annandale, VA 22003",
    "area": "Annandale",
    "county": "Fairfax",
    "region": "NoVA",
    "lat": 38.825859,
    "lng": -77.174874,
    "est_units": 200,
    "type": "garden",
    "community_room": "Unknown",
    "notes": "Garden-style",
    "status": "Not Contacted",
    "source": "https://www.apartments.com/the-willows-apartment-homes-annandale-va/",
    "verified": true
  },
  {
    "name": "Briarwood Apartments",
    "address": "4501 Briarwood Ct, Annandale, VA 22003",
    "area": "Annandale",
    "county": "Fairfax",
    "region": "NoVA",
    "lat": 38.827788,
    "lng": -77.215089,
    "est_units": 150,
    "type": "garden",
    "community_room": "Unknown",
    "notes": "Garden community",
    "status": "Not Contacted",
    "source": "https://www.apartments.com/briarwood-apartments-annandale-va/",
    "verified": true
  },
  {
    "name": "Yorktown Apartments",
    "address": "4328 Markham St, Annandale, VA 22003",
    "area": "Annandale",
    "county": "Fairfax",
    "region": "NoVA",
    "lat": 38.830515,
    "lng": -77.200183,
    "est_units": 100,
    "type": "garden",
    "community_room": "Unknown",
    "notes": "Near Little River Tpk",
    "status": "Not Contacted",
    "source": "https://www.apartments.com/yorktown-apartments-annandale-va/",
    "verified": true
  },
  {
    "name": "Parliaments",
    "address": "7409 Eastmoreland Rd, Annandale, VA 22003",
    "area": "Annandale",
    "county": "Fairfax",
    "region": "NoVA",
    "lat": 38.833343,
    "lng": -77.198747,
    "est_units": 150,
    "type": "garden",
    "community_room": "Unknown",
    "notes": "Garden community",
    "status": "Not Contacted",
    "source": "https://www.apartments.com/parliaments-annandale-va/gf20x5z/",
    "verified": true
  },
  {
    "name": "Ravensworth",
    "address": "4327 Ravensworth Rd, Annandale, VA 22003",
    "area": "Annandale",
    "county": "Fairfax",
    "region": "NoVA",
    "lat": 38.827816,
    "lng": -77.196866,
    "est_units": 200,
    "type": "garden",
    "community_room": "Unknown",
    "notes": "Garden community",
    "status": "Not Contacted",
    "source": "https://www.apartments.com/ravensworth-annandale-va/tjspdd9/",
    "verified": true
  },
  {
    "name": "Vistas of Annandale",
    "address": "7931 Patriot Dr, Annandale, VA 22003",
    "area": "Annandale",
    "county": "Fairfax",
    "region": "NoVA",
    "lat": 38.826319,
    "lng": -77.216742,
    "est_units": 200,
    "type": "garden",
    "community_room": "Unknown",
    "notes": "Garden community",
    "status": "Not Contacted",
    "source": "https://www.apartments.com/vistas-of-annandale-annandale-va/gp3b49w/",
    "verified": true
  },
  {
    "name": "Monticello Falls Church",
    "address": "7400 Parkwood Ct, Falls Church, VA 22042",
    "area": "Annandale",
    "county": "Fairfax",
    "region": "NoVA",
    "lat": 38.863886,
    "lng": -77.200451,
    "est_units": 300,
    "type": "garden",
    "community_room": "Unknown",
    "notes": "Large garden community",
    "status": "Not Contacted",
    "source": "https://www.apartments.com/monticello-falls-church-falls-church-va/thlsc09/",
    "verified": true
  },
  {
    "name": "Coralain Gardens",
    "address": "7435 Arlington Blvd, Falls Church, VA 22042",
    "area": "Annandale",
    "county": "Fairfax",
    "region": "NoVA",
    "lat": 38.866383,
    "lng": -77.201924,
    "est_units": 100,
    "type": "garden",
    "community_room": "Unknown",
    "notes": "Garden community",
    "status": "Not Contacted",
    "source": "https://www.apartments.com/coralain-gardens-falls-church-va/5ltbntp/",
    "verified": true
  },
  {
    "name": "Fairfield Crossing Apartments",
    "address": "7703 Lee Hwy, Falls Church, VA 22042",
    "area": "Annandale",
    "county": "Fairfax",
    "region": "NoVA",
    "lat": 38.878384,
    "lng": -77.189043,
    "est_units": 100,
    "type": "garden",
    "community_room": "Unknown",
    "notes": "Garden community",
    "status": "Not Contacted",
    "source": "https://www.apartments.com/fairfield-crossing-apartments-falls-church-va/9gdnnt5/",
    "verified": true
  },
  {
    "name": "Kingsley Commons Townhouses",
    "address": "7308 Arlington Blvd, Falls Church, VA 22042",
    "area": "Annandale",
    "county": "Fairfax",
    "region": "NoVA",
    "lat": 38.866474,
    "lng": -77.196898,
    "est_units": 50,
    "type": "townhouse",
    "community_room": "Unknown",
    "notes": "Townhome community",
    "status": "Not Contacted",
    "source": "https://www.apartments.com/kingsley-commons-townhouses-falls-church-va/098ef62/",
    "verified": true
  },
  {
    "name": "Cardinal Forest",
    "address": "5901 Erving St, Springfield, VA 22150",
    "area": "Springfield",
    "county": "Fairfax",
    "region": "NoVA",
    "lat": 38.791103,
    "lng": -77.191686,
    "est_units": 300,
    "type": "garden",
    "community_room": "Unknown",
    "notes": "Garden community",
    "status": "Not Contacted",
    "source": "https://www.apartments.com/cardinal-forest-springfield-va/",
    "verified": true
  },
  {
    "name": "Eagle Rock at West Springfield",
    "address": "8525 Burling Wood Dr, Springfield, VA 22152",
    "area": "Springfield",
    "county": "Fairfax",
    "region": "NoVA",
    "lat": 38.779285,
    "lng": -77.240109,
    "est_units": 200,
    "type": "garden",
    "community_room": "Unknown",
    "notes": "Garden community",
    "status": "Not Contacted",
    "source": "https://www.apartments.com/eagle-rock-apartments-at-west-springfield-springfield-va/p4m334t/",
    "verified": true
  },
  {
    "name": "ReNew Springfield",
    "address": "5734 Backlick Rd, Springfield, VA 22150",
    "area": "Springfield",
    "county": "Fairfax",
    "region": "NoVA",
    "lat": 38.794089,
    "lng": -77.186181,
    "est_units": 200,
    "type": "garden",
    "community_room": "Unknown",
    "notes": "Renovated garden",
    "status": "Not Contacted",
    "source": "https://www.apartments.com/renew-springfield-springfield-va/wwvg0zj/",
    "verified": true
  },
  {
    "name": "The Arden",
    "address": "6735 Commerce St, Springfield, VA 22150",
    "area": "Springfield",
    "county": "Fairfax",
    "region": "NoVA",
    "lat": 38.781927,
    "lng": -77.180881,
    "est_units": 250,
    "type": "mid-rise",
    "community_room": "Unknown",
    "notes": "Near Springfield TC",
    "status": "Not Contacted",
    "source": "https://www.apartments.com/the-arden-springfield-va/",
    "verified": true
  },
  {
    "name": "Burke Shire Commons",
    "address": "5765 Burke Towne Ct, Burke, VA 22015",
    "area": "Burke",
    "county": "Fairfax",
    "region": "NoVA",
    "lat": 38.79482,
    "lng": -77.276277,
    "est_units": 200,
    "type": "garden",
    "community_room": "Unknown",
    "notes": "Garden community",
    "status": "Not Contacted",
    "source": "https://www.apartments.com/burke-shire-commons-burke-va/",
    "verified": true
  },
  {
    "name": "The Cove at Bridgewater",
    "address": "405 Dinkel Ave, Bridgewater, VA 22812",
    "area": "Bridgewater",
    "county": "Rockingham",
    "region": "Central VA",
    "lat": 38.380531,
    "lng": -78.970137,
    "est_units": 80,
    "type": "garden",
    "community_room": "Unknown",
    "notes": "College town",
    "status": "Not Contacted",
    "source": "https://www.apartments.com/the-cove-at-bridgewater-bridgewater-va/",
    "verified": true
  }
]